City,Cloudiness,Country,Date,Humidity,Lat,Lng,MaxTemp,WindSpeed,absLat
tuatapere,100,NZ,1570681362,95,-46.13,167.69,46.0,11.01,46.13
ballina,20,IE,1570681673,93,54.11,-9.15,55.0,1.99,54.11
nikolskoye,90,RU,1570681310,93,59.7,30.79,41.0,4.47,59.7
leningradskiy,29,RU,1570681673,74,69.38,178.42,28.35,18.42,69.38
maltahohe,0,NA,1570681673,33,-24.83,16.98,48.43,20.09,24.83
hilo,1,US,1570681320,83,19.71,-155.08,78.8,5.82,19.71
panama city,1,US,1570681674,73,30.16,-85.65,77.0,8.05,30.16
avarua,100,CK,1570681317,83,-21.21,-159.78,69.8,9.17,21.21
codrington,40,AU,1570681345,46,-28.95,153.24,71.6,13.87,28.95
barrow,0,AR,1570681328,61,-38.31,-60.23,46.89,9.1,38.31
faanui,70,PF,1570681333,81,-16.48,-151.75,75.79,18.2,16.48
hermanus,0,ZA,1570681345,64,-34.42,19.24,51.01,1.01,34.42
busselton,10,AU,1570681311,41,-33.64,115.35,75.0,9.51,33.64
new norfolk,75,AU,1570681349,76,-42.78,147.06,57.0,17.22,42.78
cockburn town,12,TC,1570681360,75,21.46,-71.14,82.83,14.94,21.46
punta arenas,75,CL,1570681304,77,-53.16,-70.91,33.8,25.28,53.16
pisco,90,PE,1570681675,82,-13.71,-76.2,60.8,9.17,13.71
hobart,75,AU,1570681307,76,-42.88,147.33,57.0,17.22,42.88
humaita,33,AR,1570681366,67,-24.93,-65.37,73.4,3.36,24.93
vaini,0,IN,1570681313,78,15.34,74.49,78.8,3.21,15.34
upernavik,23,GL,1570681331,48,72.79,-56.15,26.19,4.58,72.79
konstantinovka,8,UA,1570681676,93,46.85,29.85,54.95,14.68,46.85
jardim,1,BR,1570681676,42,-21.48,-56.15,76.23,6.42,21.48
albany,90,US,1570681309,71,42.65,-73.75,53.6,4.7,42.65
the valley,7,AI,1570681370,78,18.22,-63.06,82.0,2.24,18.22
luderitz,0,NA,1570681365,54,-26.65,15.16,55.4,10.29,26.65
walvis bay,0,NA,1570681370,82,-22.95,14.51,55.4,14.99,22.95
hasaki,75,JP,1570681677,60,35.73,140.83,77.0,10.29,35.73
whitehorse,40,CA,1570681677,84,60.72,-135.06,34.0,14.99,60.72
cururupu,0,BR,1570681677,96,-1.82,-44.87,71.92,2.98,1.82
souillac,82,FR,1570681314,93,45.6,-0.6,57.0,2.24,45.6
kodiak,90,US,1570681317,77,39.95,-94.76,63.0,6.93,39.95
culpeper,1,US,1570681678,93,38.47,-78.0,57.99,5.46,38.47
tuktoyaktuk,40,CA,1570681327,81,69.44,-133.03,32.0,5.82,69.44
provideniya,40,RU,1570681334,64,64.42,-173.23,35.6,13.42,64.42
hithadhoo,48,MV,1570681338,75,-0.6,73.08,82.47,10.52,0.6
benjamin constant,75,BR,1570681678,100,-4.38,-70.03,71.6,3.36,4.38
mar del plata,0,AR,1570681305,40,-46.43,-67.52,53.13,19.64,46.43
arraial do cabo,100,BR,1570681322,88,-22.97,-42.02,70.79,5.35,22.97
jamestown,52,AU,1570681307,23,-33.21,138.6,69.6,4.87,33.21
bartica,20,GY,1570681679,94,6.41,-58.62,77.0,4.7,6.41
qaanaaq,100,GL,1570681324,93,77.48,-69.36,24.21,13.05,77.48
dover,90,US,1570681680,87,39.16,-75.52,57.0,8.05,39.16
airai,46,TL,1570681374,28,-8.93,125.41,86.88,9.6,8.93
grand gaube,75,MU,1570681680,73,-20.01,57.66,73.0,12.75,20.01
saint george,20,GR,1570681320,100,39.45,22.34,55.4,3.36,39.45
mahe,75,IN,1570681680,88,11.7,75.54,82.4,2.24,11.7
tarko-sale,100,RU,1570681681,76,64.92,77.78,37.0,27.14,64.92
san policarpo,100,PH,1570681681,80,12.18,125.51,84.6,8.48,12.18
yellowknife,75,CA,1570681318,59,62.45,-114.38,35.01,6.93,62.45
kolokani,6,ML,1570681681,77,13.58,-8.03,75.78,11.63,13.58
unai,58,BR,1570681682,68,-16.36,-46.91,74.35,1.7,16.36
shingu,75,JP,1570681440,61,33.72,135.99,80.6,6.93,33.72
lander,90,US,1570681682,85,42.83,-108.73,23.0,8.05,42.83
bluff,0,AU,1570681321,32,-23.58,149.07,81.81,5.31,23.58
cherskiy,0,RU,1570681682,85,68.75,161.3,20.14,5.51,68.75
kavaratti,20,IN,1570681349,79,10.57,72.64,86.0,2.05,10.57
east london,92,ZA,1570681325,93,-33.02,27.91,53.6,10.29,33.02
muros,15,ES,1570681366,100,42.77,-9.06,57.0,3.36,42.77
bandarbeyla,15,SO,1570681683,88,9.49,50.81,79.03,9.02,9.49
rikitea,100,PF,1570681303,60,-23.12,-134.97,69.15,9.56,23.12
saskylakh,93,RU,1570681327,94,71.97,114.09,12.47,13.44,71.97
ajaccio,1,FR,1570681684,93,41.93,8.74,68.0,6.93,41.93
bethel,90,US,1570681347,93,60.79,-161.76,39.2,13.87,60.79
cape town,0,ZA,1570681311,62,-33.93,18.42,55.0,18.34,33.93
fuzhou,20,CN,1570681684,48,26.08,119.3,82.4,6.71,26.08
perivolion,100,GR,1570681685,93,39.42,20.01,68.0,2.24,39.42
saurimo,97,AO,1570681685,93,-9.66,20.4,65.39,0.91,9.66
thompson,20,CA,1570681344,73,55.74,-97.86,24.8,2.24,55.74
bowen,40,AU,1570681685,48,-20.01,148.25,84.2,14.99,20.01
ushuaia,90,AR,1570681322,69,-54.81,-68.31,35.6,14.99,54.81
lebu,36,ET,1570681304,82,8.96,38.73,49.3,3.07,8.96
lavrentiya,91,RU,1570681377,70,65.58,-170.99,34.57,13.2,65.58
cidreira,0,BR,1570681396,89,-30.17,-50.22,67.12,18.65,30.17
abilene,1,US,1570681686,44,32.45,-99.73,80.6,20.8,32.45
georgetown,20,GY,1570681328,94,6.8,-58.16,77.0,4.7,6.8
alice springs,0,AU,1570681687,7,-23.7,133.88,82.4,10.29,23.7
mahebourg,75,MU,1570681319,73,-20.41,57.7,73.99,12.75,20.41
port alfred,97,ZA,1570681322,96,-33.59,26.89,53.01,1.99,33.59
poum,0,MK,1570681324,87,41.28,20.71,46.4,3.36,41.28
vila franca do campo,75,PT,1570681360,68,37.72,-25.43,71.01,5.82,37.72
henties bay,0,NA,1570681342,90,-22.12,14.28,52.3,7.6,22.12
bredasdorp,43,ZA,1570681332,86,-34.53,20.04,37.4,2.49,34.53
ribeira grande,71,PT,1570681347,68,38.52,-28.7,62.8,4.0,38.52
lasa,20,CY,1570681383,72,34.92,32.53,68.0,8.05,34.92
mataura,100,NZ,1570681329,95,-46.19,168.86,46.0,11.01,46.19
sitka,33,US,1570681688,78,37.17,-99.65,70.0,21.0,37.17
santa quiteria,100,ES,1570681688,95,37.67,-1.69,70.0,1.01,37.67
byron bay,22,AU,1570681366,64,-28.65,153.62,72.0,16.11,28.65
totma,100,RU,1570681689,96,59.98,42.76,36.52,5.36,59.98
geraldton,20,CA,1570681314,66,49.72,-86.95,53.6,10.29,49.72
rawlins,90,US,1570681689,92,41.79,-107.24,30.2,14.99,41.79
severo-kurilsk,100,RU,1570681389,95,50.68,156.12,43.5,39.43,50.68
kolno,100,PL,1570681690,97,53.41,21.93,48.22,6.38,53.41
lorengau,15,PG,1570681399,70,-2.02,147.27,84.09,1.65,2.02
hami,100,CN,1570681316,17,42.84,93.51,67.93,7.7,42.84
eyl,40,SO,1570681690,85,7.98,49.82,79.63,8.65,7.98
arkhipo-osipovka,0,RU,1570681690,38,44.37,38.53,46.29,2.65,44.37
iqaluit,75,CA,1570681314,86,63.75,-68.52,37.4,16.11,63.75
fasa,40,IR,1570681691,48,28.94,53.65,64.4,7.25,28.94
ancud,90,CL,1570681399,100,-41.87,-73.83,50.0,11.41,41.87
komsomolskiy,100,RU,1570681317,93,67.55,63.78,34.25,7.64,67.55
pimentel,0,BR,1570681691,84,-3.7,-45.5,73.74,5.46,3.7
touros,40,BR,1570681691,88,-5.2,-35.46,71.6,4.7,5.2
rawson,0,AR,1570681432,46,-43.3,-65.11,56.7,16.0,43.3
luanda,75,AO,1570681380,83,-8.83,13.24,75.2,6.93,8.83
fukue,20,JP,1570681692,53,35.03,136.69,80.6,4.7,35.03
pedasi,9,PA,1570681692,83,7.53,-80.03,80.38,5.55,7.53
aragarcas,37,BR,1570681693,77,-15.9,-52.25,74.19,1.64,15.9
kidal,19,ML,1570681693,36,18.44,1.41,85.28,7.23,18.44
tessalit,59,ML,1570681693,21,20.2,1.01,83.84,1.73,20.2
narsaq,9,GL,1570681361,46,60.91,-46.05,32.0,2.24,60.91
butaritari,74,KI,1570681312,67,3.07,172.79,85.26,12.54,3.07
katsuura,40,JP,1570681442,53,33.93,134.5,81.0,10.29,33.93
san carlos,100,NI,1570681694,1,11.12,-84.78,75.99,3.0,11.12
tiarei,75,PF,1570681694,65,-17.53,-149.33,78.8,4.7,17.53
batagay,98,RU,1570681694,67,67.65,134.64,11.19,3.81,67.65
port hardy,5,CA,1570681316,93,50.7,-127.42,35.6,3.36,50.7
castro,90,CL,1570681380,100,-42.48,-73.76,50.0,11.41,42.48
hofn,100,IS,1570681453,70,64.25,-15.21,45.23,17.53,64.25
puerto ayora,18,EC,1570681324,93,-0.74,-90.35,64.99,1.99,0.74
atuona,82,PF,1570681330,73,-9.8,-139.03,78.55,3.81,9.8
luau,86,CD,1570681695,89,-10.7,22.23,66.11,2.19,10.7
saint-philippe,90,CA,1570681342,87,45.36,-73.48,52.0,6.93,45.36
bakchar,45,RU,1570681696,70,57.02,82.07,36.46,6.77,57.02
carnarvon,0,ZA,1570681313,75,-30.97,22.13,37.62,19.03,30.97
mayskiy,75,RU,1570681696,93,43.63,44.06,48.2,4.47,43.63
bereda,0,ES,1570681696,100,43.27,-7.54,54.0,3.36,43.27
quatre cocos,75,MU,1570681697,73,-20.21,57.76,73.0,12.75,20.21
victoria,75,BN,1570681392,83,5.28,115.24,84.2,4.7,5.28
fortuna,1,US,1570681394,76,40.6,-124.16,51.8,6.93,40.6
chuy,100,UY,1570681305,81,-33.69,-53.46,61.72,5.91,33.69
matay,0,EG,1570681697,76,28.42,30.79,65.55,9.07,28.42
xichang,100,CN,1570681697,94,27.88,102.25,51.01,3.96,27.88
san cristobal,73,HN,1570681698,93,14.68,-86.92,67.33,4.58,14.68
eirunepe,100,BR,1570681698,85,-6.66,-69.87,74.26,1.05,6.66
ponta do sol,97,BR,1570681377,93,-20.63,-46.0,65.55,7.41,20.63
guerrero negro,0,MX,1570681340,80,27.97,-114.04,67.23,12.77,27.97
corn island,68,NI,1570681698,76,12.17,-83.04,84.27,8.56,12.17
haines junction,97,CA,1570681699,96,60.75,-137.51,29.53,7.17,60.75
potam,0,MX,1570681699,88,27.6,-110.38,73.99,4.84,27.6
kapaa,75,US,1570681329,78,22.08,-159.32,82.4,10.29,22.08
saldanha,0,PT,1570681334,73,41.42,-6.55,51.73,7.94,41.42
paijan,90,PE,1570681699,87,-7.73,-79.3,60.8,6.93,7.73
vao,99,EE,1570681448,99,59.1,26.19,44.1,4.18,59.1
barmer,0,IN,1570681700,39,25.74,71.4,85.24,2.81,25.74
rio gallegos,99,AR,1570681700,93,-51.62,-69.22,41.0,32.21,51.62
mwene-ditu,95,CD,1570681700,87,-7.01,23.45,67.59,2.78,7.01
moerai,100,PF,1570681701,66,-22.43,-151.33,68.23,15.77,22.43
tiksi,100,RU,1570681347,92,71.64,128.87,24.28,9.93,71.64
minot,90,US,1570681701,92,48.23,-101.3,30.2,21.92,48.23
aklavik,40,CA,1570681309,69,68.22,-135.01,33.8,8.05,68.22
marianske lazne,90,CZ,1570681701,93,49.96,12.7,48.2,12.63,49.96
port hawkesbury,1,CA,1570681702,86,45.62,-61.36,46.99,3.36,45.62
vista,90,US,1570681702,77,33.2,-117.24,66.0,3.67,33.2
talnakh,75,RU,1570681365,68,69.49,88.39,26.6,15.66,69.49
shache,0,CN,1570681703,23,38.42,77.24,64.63,6.13,38.42
hermiston,1,US,1570681703,59,45.84,-119.29,42.01,6.93,45.84
kruisfontein,10,ZA,1570681331,88,-34.0,24.73,45.99,4.51,34.0
guasdualito,100,VE,1570681704,97,7.24,-70.73,73.92,6.22,7.24
kahului,40,US,1570681704,74,20.89,-156.47,82.4,14.99,20.89
vieux-habitants,71,GP,1570681704,94,16.06,-61.77,75.2,3.36,16.06
krylovskaya,69,RU,1570681704,86,46.32,39.96,46.69,3.69,46.32
paita,58,PE,1570681705,76,-5.09,-81.11,63.59,6.83,5.09
vilyuysk,100,RU,1570681705,91,63.75,121.63,20.1,12.73,63.75
seoul,75,KR,1570681705,45,37.57,126.98,66.2,2.24,37.57
mayo,75,CA,1570681705,86,63.59,-135.9,30.2,2.6,63.59
dhidhdhoo,100,MV,1570681706,76,6.88,73.1,82.83,8.74,6.88
zambezi,97,ZM,1570681706,55,-13.55,23.12,70.23,2.9,13.55
avera,1,US,1570681365,93,33.19,-82.53,68.0,6.12,33.19
camacha,75,PT,1570681396,72,33.08,-16.33,68.0,9.17,33.08
rockford,1,US,1570681706,71,42.27,-89.09,59.0,5.82,42.27
waingapu,13,ID,1570681336,79,-9.65,120.26,79.11,9.2,9.65
chokurdakh,0,RU,1570681365,84,70.62,147.9,9.34,3.5,70.62
tarsus,0,TR,1570681707,88,36.92,34.88,64.4,6.93,36.92
isiro,32,CD,1570681707,99,2.77,27.62,65.3,0.92,2.77
yulara,0,AU,1570681372,7,-25.24,130.99,89.6,9.17,25.24
camapua,67,BR,1570681707,60,-19.53,-54.04,76.32,4.5,19.53
jalu,75,LY,1570681377,23,29.03,21.55,82.67,15.47,29.03
nhulunbuy,47,AU,1570681708,22,-12.18,136.78,91.4,11.41,12.18
pinheiro machado,73,BR,1570681708,49,-31.58,-53.38,59.0,5.01,31.58
changji,100,CN,1570681708,70,32.07,116.17,67.68,7.55,32.07
west odessa,1,US,1570681708,47,31.84,-102.48,80.6,11.41,31.84
bata,40,GQ,1570681709,100,1.87,9.77,75.2,5.82,1.87
lompoc,40,US,1570681394,87,34.64,-120.46,57.99,3.36,34.64
khatanga,31,RU,1570681303,86,71.98,102.47,16.11,10.96,71.98
leon,90,US,1570681709,93,40.74,-93.75,57.2,10.8,40.74
macduff,40,GB,1570681709,87,57.67,-2.48,51.8,14.99,57.67
bucerias,90,MX,1570681710,88,20.76,-105.33,80.01,4.51,20.76
bambanglipuro,3,ID,1570681451,51,-7.95,110.28,86.09,12.56,7.95
dolores,98,UY,1570681710,97,-33.53,-58.22,62.78,9.34,33.53
areia branca,40,BR,1570681710,78,-10.76,-37.31,77.0,10.29,10.76
sao filipe,13,CV,1570681427,82,14.9,-24.5,77.38,6.96,14.9
vardo,1,US,1570681443,71,39.62,-77.74,55.0,5.82,39.62
praia da vitoria,75,PT,1570681711,82,38.73,-27.07,62.6,5.59,38.73
sorland,72,NO,1570681348,86,67.67,12.69,30.2,4.7,67.67
marawi,75,PH,1570681711,71,8.0,124.29,86.0,8.01,8.0
north bend,1,US,1570681451,87,43.41,-124.22,48.0,5.82,43.41
vikhorevka,75,RU,1570681712,73,56.12,101.17,23.0,8.95,56.12
rio grande,2,BR,1570681712,83,-32.03,-52.1,62.01,13.47,32.03
muscatine,90,US,1570681713,55,41.42,-91.04,63.0,4.7,41.42
tilichiki,100,RU,1570681349,63,60.47,166.1,30.27,8.57,60.47
ilulissat,8,GL,1570681339,50,69.22,-51.1,28.4,12.75,69.22
vodnyy,0,RU,1570681713,91,63.51,53.41,28.63,4.4,63.51
kavieng,1,PG,1570681302,64,-2.57,150.8,85.15,1.51,2.57
faya,100,SA,1570681381,41,18.39,42.45,62.6,8.21,18.39
acoyapa,58,NI,1570681714,93,11.97,-85.17,73.54,3.76,11.97
pevek,100,RU,1570681330,83,69.7,170.27,26.8,12.49,69.7
sumenep,19,ID,1570681714,56,-7.02,113.87,85.44,8.71,7.02
obidos,0,PT,1570681714,72,39.36,-9.16,60.8,13.87,39.36
kumertau,100,RU,1570681715,85,52.77,55.78,38.73,11.5,52.77
westport,75,US,1570681355,81,41.14,-73.36,55.0,9.17,41.14
urengoy,100,RU,1570681715,75,65.96,78.37,32.67,22.0,65.96
kutum,100,SD,1570681459,59,14.2,24.66,75.27,0.63,14.2
santa cruz,90,BR,1570681380,85,-6.22,-36.02,69.94,9.25,6.22
inhambane,0,MZ,1570681325,87,-23.87,35.38,75.7,11.77,23.87
khakhea,0,BW,1570681716,28,-24.69,23.5,60.06,13.6,24.69
baykit,0,RU,1570681428,58,61.68,96.39,24.44,3.45,61.68
port augusta,0,AU,1570681716,40,-32.49,137.76,73.99,13.87,32.49
wichian buri,0,TH,1570681717,75,15.66,101.11,83.37,4.21,15.66
port-gentil,100,GA,1570681331,83,-0.72,8.78,78.64,8.11,0.72
ekibastuz,0,KZ,1570681717,54,51.72,75.32,55.71,12.09,51.72
nanortalik,11,GL,1570681362,88,60.14,-45.24,38.8,11.34,60.14
kampot,20,KH,1570681717,70,10.62,104.18,87.8,5.82,10.62
doha,0,QA,1570681718,74,25.29,51.53,87.8,4.7,25.29
murgab,75,TM,1570681718,37,37.5,61.97,68.0,4.7,37.5
qaqortoq,0,GL,1570681330,75,60.72,-46.03,32.0,2.24,60.72
pulandian,100,CN,1570681718,63,39.4,121.96,71.01,4.47,39.4
chivilcoy,6,AR,1570681719,94,-34.9,-60.02,59.45,6.24,34.9
galesong,20,ID,1570681719,46,-5.32,119.37,93.2,11.41,5.32
bonavista,2,CA,1570681374,88,48.65,-53.11,39.99,5.99,48.65
jumla,3,NP,1570681719,64,29.28,82.18,52.66,1.41,29.28
tayoltita,23,MX,1570681719,92,24.11,-105.93,65.17,4.63,24.11
macau,100,BR,1570681720,76,-5.11,-36.64,77.54,24.34,5.11
tamala,66,RU,1570681720,90,52.54,43.26,40.84,7.54,52.54
mednogorsk,95,RU,1570681720,91,51.41,57.59,39.65,12.42,51.41
fuling,100,CN,1570681720,93,29.71,107.39,62.87,3.01,29.71
kirksville,90,US,1570681720,77,40.19,-92.58,60.8,11.41,40.19
paamiut,0,GL,1570681721,58,61.99,-49.67,37.45,5.72,61.99
itarema,15,BR,1570681721,78,-2.92,-39.92,76.03,9.8,2.92
tapa,90,EE,1570681721,100,59.27,25.96,44.01,5.82,59.27
itamarandiba,27,BR,1570681721,96,-17.86,-42.86,63.03,4.11,17.86
morant bay,20,JM,1570681722,74,17.88,-76.41,82.4,5.82,17.88
constitucion,75,MX,1570681341,49,23.99,-104.67,68.0,9.17,23.99
vilhena,100,BR,1570681722,86,-12.74,-60.15,71.65,1.74,12.74
cabo san lucas,5,MX,1570681325,58,22.89,-109.91,82.99,4.7,22.89
abu samrah,0,SY,1570681722,74,35.3,37.18,60.12,5.14,35.3
koupela,100,BF,1570681723,86,12.18,-0.35,76.08,7.18,12.18
tasiilaq,95,GL,1570681303,80,65.61,-37.64,35.6,1.96,65.61
pangai,40,TO,1570681435,74,-19.8,-174.35,80.6,5.82,19.8
dikson,73,RU,1570681304,87,73.51,80.55,28.74,24.74,73.51
laguna,40,BZ,1570681447,94,16.17,-88.94,78.8,2.35,16.17
lodwar,70,KE,1570681724,55,3.12,35.6,81.19,13.36,3.12
iskateley,1,RU,1570681724,93,67.68,53.15,28.04,8.96,67.68
pacific grove,1,US,1570681724,62,36.62,-121.92,61.0,5.82,36.62
esperance,0,AU,1570681316,51,-33.86,121.89,80.6,13.87,33.86
nikolayevsk-na-amure,87,RU,1570681725,61,53.14,140.72,52.65,8.02,53.14
tucuman,0,PE,1570681725,29,-17.17,-70.89,51.46,3.25,17.17
hamilton,5,CA,1570681401,93,43.26,-79.87,59.0,10.29,43.26
mantua,40,IT,1570681432,100,45.16,10.79,57.2,2.24,45.16
lagoa,0,PT,1570681306,52,37.14,-8.45,66.2,4.7,37.14
archidona,12,EC,1570681726,92,-0.91,-77.81,58.23,5.33,0.91
nenjiang,0,CN,1570681726,48,49.17,125.23,45.12,8.34,49.17
port lincoln,92,AU,1570681448,64,-34.72,135.86,59.38,7.9,34.72
peleduy,96,RU,1570681726,83,59.63,112.75,18.64,5.23,59.63
ust-tsilma,100,RU,1570681727,91,65.44,52.15,31.6,5.1,65.44
half moon bay,75,US,1570681404,81,37.46,-122.43,64.0,5.82,37.46
svetlogorsk,75,RU,1570681727,80,53.14,59.15,41.0,4.47,53.14
bintulu,75,MY,1570681355,74,3.17,113.03,86.0,8.05,3.17
bandar,90,BD,1570681728,94,22.29,91.78,77.0,2.24,22.29
zyryanka,100,RU,1570681728,52,65.73,150.89,23.81,5.48,65.73
conceicao da barra,0,BR,1570681728,80,-18.59,-39.73,76.15,15.89,18.59
koroni,75,GR,1570681728,82,36.8,21.96,69.01,1.15,36.8
port elizabeth,90,US,1570681336,81,39.31,-74.98,57.0,10.29,39.31
fairbanks,90,US,1570681729,93,64.84,-147.72,39.2,4.7,64.84
srednekolymsk,92,RU,1570681320,76,67.46,153.71,19.45,8.31,67.46
steinbach,90,CA,1570681729,88,49.53,-96.69,37.0,21.92,49.53
san patricio,0,PY,1570681321,68,-26.98,-56.83,68.47,5.99,26.98
manzhouli,0,CN,1570681346,32,49.6,117.43,34.59,16.51,49.6
grand-santi,68,GF,1570681729,81,4.27,-54.38,71.6,1.27,4.27
guruvayur,40,IN,1570681730,70,10.6,76.04,86.0,6.93,10.6
dillon,20,US,1570681730,85,45.22,-112.64,15.01,10.29,45.22
clyde river,1,CA,1570681392,77,70.47,-68.59,32.0,20.8,70.47
zaragoza,75,SV,1570681731,94,13.59,-89.29,77.0,3.36,13.59
nazca,0,PE,1570681731,68,-14.83,-74.94,60.01,3.75,14.83
chapais,1,CA,1570681427,93,49.78,-74.86,37.4,4.7,49.78
ostrovnoy,92,RU,1570681322,95,68.05,39.51,30.11,9.54,68.05
derzhavinsk,100,KZ,1570681337,45,51.1,66.31,56.16,10.29,51.1
norman wells,75,CA,1570681326,86,65.28,-126.83,33.8,3.36,65.28
shelburne,5,CA,1570681732,66,44.08,-80.2,55.4,8.05,44.08
rocha,100,UY,1570681361,76,-34.48,-54.34,61.59,10.72,34.48
kaoma,100,ZM,1570681732,91,-14.8,24.8,62.33,4.51,14.8
georgiyevka,38,RU,1570681732,94,52.25,40.45,41.09,6.79,52.25
bambous virieux,75,MU,1570681351,73,-20.34,57.76,73.99,12.75,20.34
saint-joseph,0,FR,1570681733,76,43.56,6.97,60.8,3.36,43.56
abalak,100,NE,1570681733,76,15.46,6.28,72.07,26.87,15.46
emba,20,CY,1570681733,72,34.81,32.42,66.2,10.29,34.81
batagay-alyta,100,RU,1570681734,76,67.8,130.41,13.12,15.48,67.8
palembang,16,ID,1570681734,46,-2.99,104.76,90.81,5.43,2.99
cayenne,5,GF,1570681382,88,4.94,-52.33,75.2,6.9,4.94
cascais,0,PT,1570681734,72,38.7,-9.42,62.6,13.87,38.7
togul,0,RU,1570681735,74,53.47,85.91,42.94,5.78,53.47
okahandja,1,NA,1570681735,36,-21.98,16.91,61.0,11.41,21.98
clinton,40,US,1570681735,76,41.28,-72.53,55.0,16.11,41.28
los llanos de aridane,40,ES,1570681735,60,28.66,-17.92,73.4,9.17,28.66
dunedin,100,NZ,1570681371,95,-45.87,170.5,46.99,8.99,45.87
hobyo,1,SO,1570681736,82,5.35,48.53,79.18,5.01,5.35
aswan,0,EG,1570681438,21,24.09,32.9,84.2,6.93,24.09
san juan,28,AR,1570681736,28,-31.54,-68.53,67.12,4.12,31.54
lingao,6,CN,1570681736,74,19.91,109.69,82.26,6.72,19.91
torbay,20,CA,1570681306,93,47.66,-52.73,42.01,9.17,47.66
mindelo,0,PT,1570681737,81,41.31,-8.72,57.0,4.7,41.31
yarmouth,90,CA,1570681737,87,43.84,-66.12,51.01,17.22,43.84
yar-sale,100,RU,1570681345,88,66.83,70.83,39.34,22.19,66.83
zemen,20,BG,1570681737,93,42.48,22.75,48.0,5.82,42.48
ajdabiya,100,LY,1570681738,41,30.75,20.22,79.38,16.5,30.75
mayumba,100,GA,1570681738,87,-3.44,10.65,75.97,9.03,3.44
mount gambier,90,AU,1570681306,71,-37.83,140.78,55.4,8.05,37.83
dana point,90,US,1570681738,77,33.47,-117.7,66.99,3.49,33.47
gravelbourg,93,CA,1570681352,55,49.88,-106.56,28.36,8.06,49.88
kokopo,100,PG,1570681341,81,-4.34,152.27,82.58,15.93,4.34
porto novo,75,BR,1570681439,82,-23.68,-45.44,64.4,6.93,23.68
maningrida,28,AU,1570681739,30,-12.05,134.23,93.4,11.42,12.05
copiapo,50,CL,1570681739,81,-27.37,-70.33,51.8,3.36,27.37
beringovskiy,0,RU,1570681307,61,63.05,179.32,33.57,9.49,63.05
ekhabi,19,RU,1570681740,59,53.51,142.97,51.51,8.9,53.51
carauari,87,BR,1570681740,93,-4.88,-66.9,72.97,0.98,4.88
umtata,75,ZA,1570681740,87,-31.59,28.78,48.2,8.05,31.59
devonport,62,AU,1570681740,62,-41.18,146.36,60.01,4.0,41.18
kiyasovo,96,RU,1570681741,94,56.35,53.12,33.01,1.01,56.35
ketchikan,90,US,1570681373,81,55.34,-131.65,46.4,5.82,55.34
spirit river,40,CA,1570681741,74,55.78,-118.84,28.4,9.17,55.78
boueni,75,YT,1570681742,83,-12.9,45.08,80.6,2.24,12.9
bend,1,US,1570681742,67,44.06,-121.32,36.0,5.91,44.06
saint-augustin,75,CA,1570681742,66,45.63,-73.98,51.01,8.88,45.63
bay roberts,20,CA,1570681743,93,47.58,-53.28,42.01,9.17,47.58
nioro,2,GM,1570681743,83,13.79,-15.05,76.19,2.76,13.79
college,90,US,1570681338,93,64.86,-147.8,39.2,4.7,64.86
huilong,100,CN,1570681743,90,31.15,106.5,62.53,8.36,31.15
kaitangata,100,NZ,1570681338,89,-46.28,169.85,46.0,18.99,46.28
matara,69,BI,1570681744,88,-3.48,29.48,57.88,5.7,3.48
mankono,47,CI,1570681744,92,8.06,-6.19,70.77,2.98,8.06
port keats,6,AU,1570681351,27,-14.25,129.55,93.43,7.38,14.25
caravelas,100,BR,1570681315,92,-17.73,-39.27,70.14,5.18,17.73
saint-francois,43,FR,1570681744,81,46.42,3.91,51.8,3.36,46.42
nantucket,90,US,1570681745,82,41.28,-70.1,57.99,31.09,41.28
aykhal,90,RU,1570681745,73,65.95,111.51,19.4,15.66,65.95
tonekabon,90,IR,1570681745,100,36.82,50.88,66.2,9.59,36.82
maragogi,0,BR,1570681318,72,-9.01,-35.22,77.99,15.47,9.01
salalah,20,OM,1570681339,74,17.01,54.1,82.4,4.12,17.01
kozulka,75,UA,1570681746,100,50.04,23.8,50.0,11.18,50.04
rajmahal,11,IN,1570681746,74,25.05,87.83,79.7,2.18,25.05
broome,0,GB,1570681746,93,52.47,1.45,48.0,8.05,52.47
maiduguri,99,NG,1570681746,66,11.84,13.15,76.24,3.61,11.84
vestmanna,100,FO,1570681310,93,62.16,-7.17,46.4,29.97,62.16
ambulu,28,ID,1570681747,87,-8.35,113.61,75.15,12.17,8.35
uyskoye,99,RU,1570681747,86,54.37,60.01,41.79,6.8,54.37
meulaboh,100,ID,1570681370,77,4.14,96.13,79.47,5.4,4.14
aquiraz,75,BR,1570681747,74,-3.9,-38.39,78.8,16.11,3.9
uppsala,100,SE,1570681747,100,59.86,17.64,46.4,2.24,59.86
vestmannaeyjar,64,IS,1570681398,86,63.44,-20.27,44.46,10.75,63.44
morro bay,1,US,1570681748,87,35.37,-120.85,59.0,4.7,35.37
edd,89,ER,1570681748,58,13.93,41.69,85.15,1.57,13.93
zharkent,100,KZ,1570681748,44,44.17,80.0,63.37,6.64,44.17
portland,1,US,1570681438,66,43.66,-70.25,52.0,6.93,43.66
tura,0,RU,1570681749,79,64.27,100.22,14.88,4.46,64.27
klaksvik,100,FO,1570681348,93,62.23,-6.59,46.4,29.97,62.23
hualmay,37,PE,1570681327,87,-11.1,-77.61,56.08,1.93,11.1
antofagasta,90,CL,1570681427,72,-23.65,-70.4,59.0,8.05,23.65
petropavlovsk-kamchatskiy,98,RU,1570681749,57,53.05,158.65,51.8,13.42,53.05
qasigiannguit,8,GL,1570681750,50,68.82,-51.19,28.4,12.75,68.82
cacule,77,BR,1570681750,77,-14.5,-42.22,70.2,10.17,14.5
dasuya,0,IN,1570681750,58,31.81,75.66,75.52,2.19,31.81
lancaster,90,US,1570681750,62,40.04,-76.31,55.99,9.17,40.04
topeka,90,US,1570681751,77,39.05,-95.68,63.0,9.17,39.05
rucheng,2,CN,1570681751,57,25.55,113.68,81.21,4.78,25.55
anchorage,90,US,1570681751,70,61.22,-149.89,48.2,14.99,61.22
ponazyrevo,100,RU,1570681751,98,58.36,46.31,36.55,4.86,58.36
tocopilla,0,CL,1570681752,35,-22.09,-70.2,53.33,1.65,22.09
usinsk,99,RU,1570681752,97,66.0,57.56,28.99,3.06,66.0
dustlik,33,UZ,1570681752,30,40.53,68.03,63.36,0.78,40.53
nakhon phanom,20,LA,1570681752,58,17.4,104.79,87.8,8.05,17.4
kommunisticheskiy,100,RU,1570681752,90,61.68,64.48,41.99,8.56,61.68
jayanca,90,PE,1570681753,29,-6.39,-79.82,66.2,11.41,6.39
khash,0,IR,1570681753,20,28.22,61.21,70.11,3.18,28.22
vanavara,85,RU,1570681453,60,60.35,102.28,22.37,7.02,60.35
kinlochleven,100,GB,1570681753,93,56.71,-4.97,51.01,9.55,56.71
sola,46,TZ,1570681754,70,-3.17,33.8,68.49,6.4,3.17
lakatoro,100,VU,1570681754,88,-16.11,167.42,80.6,9.17,16.11
gasa,9,BT,1570681754,64,27.91,89.73,33.6,4.5,27.91
puerto ayacucho,40,CO,1570681755,94,5.66,-67.63,77.0,0.98,5.66
bathsheba,20,BB,1570681379,69,13.22,-59.52,82.4,14.99,13.22
channel-port aux basques,34,CA,1570681755,66,47.57,-59.14,46.33,1.47,47.57
udachnyy,90,RU,1570681312,73,66.42,112.4,19.4,15.66,66.42
bulawayo,94,ZW,1570681755,52,-20.16,28.59,69.8,6.93,20.16
yaring,20,TH,1570681756,70,6.87,101.37,86.0,2.24,6.87
muroto,20,JP,1570681756,54,33.37,134.14,82.4,6.93,33.37
aitape,100,PG,1570681756,67,-3.15,142.36,82.62,3.22,3.15
paka,100,CF,1570681756,99,4.15,15.03,66.88,0.69,4.15
hirara,40,JP,1570681360,61,24.8,125.28,82.4,16.11,24.8
samoded,94,RU,1570681757,92,63.61,40.52,30.76,8.22,63.61
pareora,98,NZ,1570681757,94,-44.49,171.21,53.01,10.0,44.49
flinders,40,AU,1570681757,45,-34.58,150.85,68.0,11.41,34.58
kalianget,20,ID,1570681757,34,-7.35,109.91,93.2,9.17,7.35
hovd,60,NO,1570681758,93,63.83,10.7,43.0,10.29,63.83
kuopio,20,FI,1570681758,92,62.89,27.68,32.0,4.7,62.89
heihe,20,RU,1570681758,29,50.24,127.51,48.2,11.18,50.24
samana,20,EC,1570681758,98,0.12,-76.97,70.09,2.33,0.12
kudahuvadhoo,100,MV,1570681759,69,2.67,72.89,82.96,7.85,2.67
buin,100,CL,1570681759,36,-33.73,-70.74,62.6,5.82,33.73
bilibino,0,RU,1570681388,88,68.06,166.44,13.03,2.41,68.06
goderich,0,CA,1570681323,80,43.74,-81.71,48.99,13.64,43.74
ola,100,RU,1570681375,88,59.58,151.3,35.85,27.29,59.58
yevlax,90,AZ,1570681759,77,40.61,47.15,62.6,5.82,40.61
priladozhskiy,90,RU,1570681760,93,59.85,31.48,41.0,4.47,59.85
soverato,20,IT,1570681760,73,38.69,16.55,69.8,9.17,38.69
arauco,99,CL,1570681760,93,-37.25,-73.32,55.4,8.05,37.25
ankang,100,CN,1570681761,96,32.73,108.99,54.23,0.81,32.73
tamiahua,100,MX,1570681761,77,21.28,-97.45,81.46,7.54,21.28
brae,100,GB,1570681761,93,60.4,-1.35,51.8,14.99,60.4
ouesso,100,CG,1570681335,97,1.61,16.05,68.23,3.12,1.61
veresti,32,RO,1570681761,54,47.6,26.43,54.0,5.82,47.6
te anau,100,NZ,1570681435,94,-45.41,167.72,44.55,10.11,45.41
namibe,85,AO,1570681329,86,-15.19,12.15,67.57,1.44,15.19
nioki,94,CD,1570681762,99,-2.72,17.69,69.42,2.72,2.72
nurlat,100,RU,1570681762,89,54.43,50.8,39.36,9.86,54.43
cabedelo,75,BR,1570681763,73,-6.97,-34.84,77.0,6.93,6.97
marabba,4,SD,1570681763,66,12.35,32.18,79.77,5.13,12.35
makakilo city,1,US,1570681368,78,21.35,-158.09,84.2,3.36,21.35
kamariotissa,40,GR,1570681763,87,40.48,25.47,59.0,5.7,40.48
salekhard,100,RU,1570681763,97,66.54,66.62,40.1,13.39,66.54
genhe,53,CN,1570681375,36,50.78,121.52,31.59,11.01,50.78
valentin gomez farias,19,MX,1570681764,69,24.05,-104.7,66.99,11.99,24.05
tsiroanomandidy,4,MG,1570681764,64,-18.77,46.05,68.29,4.76,18.77
longyearbyen,0,NO,1570681332,90,78.22,15.63,19.09,2.72,78.22
sao luis de montes belos,66,BR,1570681765,85,-16.52,-50.37,70.5,1.88,16.52
terney,0,RU,1570681765,48,45.05,136.61,62.08,7.04,45.05
wencheng,14,CN,1570681765,61,27.79,120.09,82.27,0.6,27.79
sept-iles,5,CA,1570681765,92,50.2,-66.38,35.01,3.36,50.2
langenburg,100,CA,1570681766,73,50.84,-101.7,30.42,9.11,50.84
winslow,0,GB,1570681766,87,51.94,-0.88,48.2,13.87,51.94
dingle,85,PH,1570681433,74,11.0,122.67,83.91,5.85,11.0
blagoyevo,100,RU,1570681766,91,63.37,47.92,31.24,7.75,63.37
margate,75,AU,1570681363,76,-43.03,147.26,57.0,17.22,43.03
tambovka,33,RU,1570681767,59,47.32,47.38,40.64,2.31,47.32
honningsvag,40,NO,1570681767,75,70.98,25.97,41.0,14.99,70.98
maidstone,90,CA,1570681767,79,53.09,-109.3,24.8,8.05,53.09
severobaykalsk,77,RU,1570681768,46,55.65,109.32,27.48,17.79,55.65
payyannur,75,IN,1570681768,88,12.1,75.2,82.4,2.24,12.1
vuktyl,100,RU,1570681768,90,63.86,57.31,31.12,3.69,63.86
placido de castro,13,BR,1570681769,62,-10.34,-67.19,77.85,1.64,10.34
gerash,20,IR,1570681769,54,27.67,54.14,78.8,1.53,27.67
sabha,0,LY,1570681769,41,27.03,14.43,69.19,6.15,27.03
qinhuangdao,100,CN,1570681769,62,39.94,119.59,64.09,10.9,39.94
saint anthony,90,US,1570681385,49,43.97,-111.68,26.6,6.93,43.97
bourail,100,NC,1570681770,53,-21.57,165.5,76.62,1.95,21.57
plast,100,RU,1570681770,86,54.37,60.81,42.57,10.38,54.37
coahuayana,100,MX,1570681770,90,18.62,-100.35,73.18,1.74,18.62
alta floresta,100,BR,1570681770,95,-9.87,-56.08,70.59,3.29,9.87
uglegorsk,32,RU,1570681771,63,49.08,142.06,57.33,16.75,49.08
ixtapa,90,MX,1570681771,88,20.71,-105.21,80.01,1.51,20.71
sur,0,OM,1570681771,47,22.57,59.53,82.67,5.74,22.57
magan,0,OM,1570681771,48,24.42,56.58,87.8,3.36,24.42
neuquen,99,AR,1570681772,51,-38.95,-68.06,59.0,2.24,38.95
la sarre,0,CA,1570681772,79,48.8,-79.2,44.56,6.4,48.8
camocim,0,BR,1570681772,85,-2.9,-40.84,71.42,5.73,2.9
neryungri,100,RU,1570681772,82,56.66,124.71,15.06,12.13,56.66
netrakona,82,BD,1570681773,80,24.88,90.72,78.04,3.6,24.88
alofi,61,NU,1570681433,78,-19.06,-169.92,78.8,10.29,19.06
kiama,40,AU,1570681773,45,-34.67,150.86,68.0,11.41,34.67
eureka,1,US,1570681773,75,40.8,-124.16,48.2,4.7,40.8
arlit,100,NE,1570681458,40,18.74,7.39,84.58,10.85,18.74
tinaquillo,100,VE,1570681774,99,9.92,-68.31,67.15,3.01,9.92
newcastle,40,AU,1570681774,63,-32.93,151.78,66.0,18.34,32.93
adrar,0,DZ,1570681774,36,27.87,-0.29,64.4,9.17,27.87
kokoda,97,PG,1570681774,89,-8.88,147.74,69.44,3.79,8.88
poronaysk,19,RU,1570681774,59,49.22,143.1,58.17,11.82,49.22
isetskoye,100,RU,1570681775,92,56.49,65.32,45.01,8.41,56.49
abonnema,75,NG,1570681775,100,4.71,6.79,73.4,2.53,4.71
verkhoyansk,100,RU,1570681352,66,67.55,133.39,12.24,7.57,67.55
bangui,100,CF,1570681775,100,4.39,18.55,71.6,2.24,4.39
yumen,0,CN,1570681304,34,40.29,97.04,60.73,1.21,40.29
nelson,56,CA,1570681776,77,49.49,-117.29,22.39,2.34,49.49
ossora,100,RU,1570681372,84,59.24,163.07,43.43,33.61,59.24
tashtagol,0,RU,1570681776,72,52.76,87.85,41.61,3.72,52.76
jieshi,5,CN,1570681776,61,22.82,115.83,86.0,5.21,22.82
wanaka,98,NZ,1570681776,79,-44.7,169.14,57.0,1.01,44.7
kattivakkam,40,IN,1570681777,70,13.22,80.32,87.8,5.82,13.22
loandjili,75,CG,1570681777,94,-4.77,11.87,77.0,3.36,4.77
amahai,100,ID,1570681777,77,-3.31,129.0,79.77,5.22,3.31
mount isa,93,AU,1570681388,5,-20.73,139.49,87.8,14.99,20.73
puerto colombia,75,CO,1570681778,94,10.99,-74.96,78.8,9.17,10.99
auray,90,FR,1570681778,93,47.67,-2.99,59.0,4.7,47.67
atar,85,MR,1570681778,22,20.52,-13.05,81.97,9.65,20.52
kiunga,100,PG,1570681778,83,-6.12,141.3,80.01,1.89,6.12
munster,1,US,1570681778,67,41.56,-87.51,63.0,5.82,41.56
moa,100,CU,1570681779,97,20.66,-74.95,70.52,3.56,20.66
samarai,89,PG,1570681328,87,-10.62,150.67,76.93,8.45,10.62
werda,0,BW,1570681779,33,-25.27,23.28,58.12,10.87,25.27
mayna,96,RU,1570681779,72,53.0,91.49,38.62,2.8,53.0
mattru,100,SL,1570681780,97,7.62,-11.83,72.39,2.44,7.62
okhotsk,100,RU,1570681403,99,59.36,143.24,36.25,4.11,59.36
ulladulla,40,AU,1570681337,45,-35.36,150.48,64.4,11.41,35.36
pandan,44,PH,1570681780,75,11.72,122.09,82.9,9.68,11.72
diamantino,91,BR,1570681387,62,-14.4,-56.44,76.48,5.7,14.4
prince rupert,90,CA,1570681780,87,54.32,-130.32,42.8,3.54,54.32
roquetas de mar,90,ES,1570681781,68,36.76,-2.61,70.0,5.82,36.76
florianopolis,1,BR,1570681781,88,-27.6,-48.55,69.01,8.05,27.6
tazovskiy,100,RU,1570681781,79,67.47,78.7,32.5,23.72,67.47
shitanjing,100,CN,1570681781,30,39.23,106.34,62.89,3.44,39.23
vostok,0,RU,1570681782,45,46.45,135.83,60.06,12.82,46.45
chumikan,100,RU,1570681782,97,54.72,135.31,37.72,2.33,54.72
olivenza,0,ES,1570681782,46,38.68,-7.1,62.01,1.99,38.68
deputatskiy,100,RU,1570681782,92,69.3,139.9,9.36,2.19,69.3
yinchuan,86,CN,1570681437,29,38.48,106.21,60.93,1.51,38.48
hay river,75,CA,1570681395,79,60.82,-115.79,28.4,2.24,60.82
along,28,IN,1570681783,94,28.17,94.8,71.15,2.93,28.17
skowhegan,1,US,1570681783,87,44.77,-69.72,48.0,8.05,44.77
okhansk,75,RU,1570681783,86,57.72,55.39,37.4,8.95,57.72
nyurba,100,RU,1570681784,76,63.29,118.35,21.72,10.74,63.29
shakiso,99,ET,1570681784,98,5.77,38.9,55.18,1.42,5.77
hammerfest,40,NO,1570681784,93,70.66,23.68,35.6,13.87,70.66
warmbad,80,DE,1570681784,81,50.67,13.08,52.0,10.29,50.67
tomatlan,100,MX,1570681387,98,19.93,-105.25,74.41,0.54,19.93
nishihara,75,JP,1570681785,50,35.74,139.53,81.0,4.7,35.74
maniitsoq,34,GL,1570681386,46,65.42,-52.9,35.19,4.88,65.42
mlonggo,20,ID,1570681785,34,-6.53,110.7,93.2,9.17,6.53
porto walter,31,BR,1570681786,93,-8.27,-72.74,71.55,1.76,8.27
hollola,63,FI,1570681786,99,60.99,25.5,37.99,1.01,60.99
manggar,67,ID,1570681786,80,-2.88,108.27,81.16,11.39,2.88
zhigansk,100,RU,1570681369,77,66.77,123.37,20.79,20.25,66.77
zaozerne,100,UA,1570681786,94,51.37,23.94,48.51,13.07,51.37
digby,100,CA,1570681787,90,44.62,-65.76,48.0,1.99,44.62
